{
  "type": "FeatureCollection",
  "features": [
    {
      "type": "Feature",
      "geometry": {
        "type": "Point",
        "coordinates": [
          -77.46103199,
          37.55225139
        ]
      },
      "properties": {
        "year": "1963",
        "chair1": "Virginia Sessoms",
        "chair2": "",
        "clean_address": "307 N. Allen Ave.",
        "host_name": "Mr. & Mrs. Richard (Ann) Velz",
        "zip_code": 23220.0,
        "state_plane_x": 11784099.6668413,
        "state_plane_y": 3726289.6642701
      }
    },
    {
      "type": "Feature",
      "geometry": {
        "type": "Point",
        "coordinates": [
          -77.46327848,
          37.55077805
        ]
      },
      "properties": {
        "year": "1963",
        "chair1": "Virginia Sessoms",
        "chair2": "",
        "clean_address": "1825 Grove Ave.",
        "host_name": "Mr. & Mrs. William (Anne) Carleton",
        "zip_code": 23220.0,
        "state_plane_x": 11783454.3557959,
        "state_plane_y": 3725746.07218143
      }
    },
    {
      "type": "Feature",
      "geometry": {
        "type": "Point",
        "coordinates": [
          -77.46401724,
          37.55141867
        ]
      },
      "properties": {
        "year": "1963",
        "chair1": "Virginia Sessoms",
        "chair2": "",
        "clean_address": "1914 Grove Ave.",
        "host_name": "Mrs. Louise Fowlkes & Miss Dorothy Daniels",
        "zip_code": 23220.0,
        "state_plane_x": 11783237.6442871,
        "state_plane_y": 3725976.96410811
      }
    },
    {
      "type": "Feature",
      "geometry": {
        "type": "Point",
        "coordinates": [
          -77.46572855,
          37.5529938
        ]
      },
      "properties": {
        "year": "1963",
        "chair1": "Virginia Sessoms",
        "chair2": "",
        "clean_address": "2109 Hanover Ave.",
        "host_name": "Mr. & Mrs. Charles (Jed) (Betty) Wilson",
        "zip_code": 23220.0,
        "state_plane_x": 11782735.2880084,
        "state_plane_y": 3726545.01874627
      }
    },
    {
      "type": "Feature",
      "geometry": {
        "type": "Point",
        "coordinates": [
          -77.460348,
          37.55260173
        ]
      },
      "properties": {
        "year": "1963",
        "chair1": "Virginia Sessoms",
        "chair2": "",
        "clean_address": "1714 Park Ave.",
        "host_name": "Mr. & Mrs. Dallas (Elizabeth) Coons",
        "zip_code": 23220.0,
        "state_plane_x": 11784296.5332454,
        "state_plane_y": 3726419.40318385
      }
    },
    {
      "type": "Feature",
      "geometry": {
        "type": "Point",
        "coordinates": [
          -77.46082082,
          37.55251338
        ]
      },
      "properties": {
        "year": "1963",
        "chair1": "Virginia Sessoms",
        "chair2": "",
        "clean_address": "1725 Park Ave.",
        "host_name": "Mr. & Mrs. James (Patricia) Glave",
        "zip_code": 23220.0,
        "state_plane_x": 11784159.8278102,
        "state_plane_y": 3726385.72477353
      }
    },
    {
      "type": "Feature",
      "geometry": {
        "type": "Point",
        "coordinates": [
          -77.46500154,
          37.55444953
        ]
      },
      "properties": {
        "year": "1963",
        "chair1": "Virginia Sessoms",
        "chair2": "",
        "clean_address": "2108 Stuart Ave.",
        "host_name": "Mr. & Mrs. Mitchell (Marion) Cates",
        "zip_code": 23220.0,
        "state_plane_x": 11782940.2177166,
        "state_plane_y": 3727077.35101494
      }
    },
    {
      "type": "Feature",
      "geometry": {
        "type": "Point",
        "coordinates": [
          -77.46103804,
          37.55035444
        ]
      },
      "properties": {
        "year": "1964",
        "chair1": "Adella Watlington",
        "chair2": "",
        "clean_address": "1702 Grove Ave.",
        "host_name": "Mr. & Mrs. Sam (Barbara) Perry",
        "zip_code": 23220.0,
        "state_plane_x": 11784105.512302,
        "state_plane_y": 3725598.97667511
      }
    },
    {
      "type": "Feature",
      "geometry": {
        "type": "Point",
        "coordinates": [
          -77.46324467,
          37.55212148
        ]
      },
      "properties": {
        "year": "1964",
        "chair1": "Adella Watlington",
        "chair2": "",
        "clean_address": "1909 Hanover Ave.",
        "host_name": "Mr. & Mrs. John (Suzanne) Harrison",
        "zip_code": 23220.0,
        "state_plane_x": 11783458.7845928,
        "state_plane_y": 3726235.31004806
      }
    },
    {
      "type": "Feature",
      "geometry": {
        "type": "Point",
        "coordinates": [
          -77.45984784,
          37.55329747
        ]
      },
      "properties": {
        "year": "1964",
        "chair1": "Adella Watlington",
        "chair2": "",
        "clean_address": "1643 Monument Ave.",
        "host_name": "Mr. & Mrs. Horace (Sarah) McCowan",
        "zip_code": 23220.0,
        "state_plane_x": 11784438.7258744,
        "state_plane_y": 3726674.31540368
      }
    },
    {
      "type": "Feature",
      "geometry": {
        "type": "Point",
        "coordinates": [
          -77.45666173,
          37.54940749
        ]
      },
      "properties": {
        "year": "1964",
        "chair1": "Adella Watlington",
        "chair2": "",
        "clean_address": "1301 Park Ave.",
        "host_name": "Mr. & Mrs. John (Margaret) Synon",
        "zip_code": 23220.0,
        "state_plane_x": 11785377.9392191,
        "state_plane_y": 3725268.19255976
      }
    },
    {
      "type": "Feature",
      "geometry": {
        "type": "Point",
        "coordinates": [
          -77.46827734,
          37.55720275
        ]
      },
      "properties": {
        "year": "1964",
        "chair1": "Adella Watlington",
        "chair2": "",
        "clean_address": "2419 Park Ave.",
        "host_name": "Mr. & Mrs. Charles (June) Weaver",
        "zip_code": 23220.0,
        "state_plane_x": 11781979.7170129,
        "state_plane_y": 3728069.38577627
      }
    },
    {
      "type": "Feature",
      "geometry": {
        "type": "Point",
        "coordinates": [
          -77.46637934,
          37.5549327
        ]
      },
      "properties": {
        "year": "1964",
        "chair1": "Adella Watlington",
        "chair2": "",
        "clean_address": "2214 Stuart Ave.",
        "host_name": "Mr. & Mrs. Emmett (Jane) Reid",
        "zip_code": 23220.0,
        "state_plane_x": 11782538.913073,
        "state_plane_y": 3727248.89594744
      }
    },
    {
      "type": "Feature",
      "geometry": {
        "type": "Point",
        "coordinates": [
          -77.46752004,
          37.55096995
        ]
      },
      "properties": {
        "year": "1965",
        "chair1": "Jacqueline Hodges",
        "chair2": "",
        "clean_address": "2127 Floyd Ave.",
        "host_name": "Mr. Richard Duncan",
        "zip_code": 23220.0,
        "state_plane_x": 11782224.043624,
        "state_plane_y": 3725802.46609752
      }
    },
    {
      "type": "Feature",
      "geometry": {
        "type": "Point",
        "coordinates": [
          -77.46761242,
          37.55166072
        ]
      },
      "properties": {
        "year": "1965",
        "chair1": "Jacqueline Hodges",
        "chair2": "",
        "clean_address": "102 N. Shields Ave.",
        "host_name": "Mr. J. Henry Brown Jr.",
        "zip_code": 23220.0,
        "state_plane_x": 11782194.5141555,
        "state_plane_y": 3726053.67720927
      }
    },
    {
      "type": "Feature",
      "geometry": {
        "type": "Point",
        "coordinates": [
          -77.46755225,
          37.55177226
        ]
      },
      "properties": {
        "year": "1965",
        "chair1": "Jacqueline Hodges",
        "chair2": "",
        "clean_address": "106 N. Shields Ave.",
        "host_name": "Mr. & Mrs. Kenton (Margaret) Muhleman, Jr.",
        "zip_code": 23220.0,
        "state_plane_x": 11782211.5141215,
        "state_plane_y": 3726094.47666836
      }
    },
    {
      "type": "Feature",
      "geometry": {
        "type": "Point",
        "coordinates": [
          -77.46732945,
          37.55155966
        ]
      },
      "properties": {
        "year": "1965",
        "chair1": "Jacqueline Hodges",
        "chair2": "",
        "clean_address": "109 N. Shields Ave.",
        "host_name": "Mr. Vernon Jackson",
        "zip_code": 23220.0,
        "state_plane_x": 11782276.9454211,
        "state_plane_y": 3726017.77898711
      }
    },
    {
      "type": "Feature",
      "geometry": {
        "type": "Point",
        "coordinates": [
          -77.46721195,
          37.55171197
        ]
      },
      "properties": {
        "year": "1965",
        "chair1": "Jacqueline Hodges",
        "chair2": "",
        "clean_address": "115 N. Shields Ave.",
        "host_name": "Mr. Jacques Van Caneghem",
        "zip_code": 23220.0,
        "state_plane_x": 11782310.3987663,
        "state_plane_y": 3726073.60630327
      }
    },
    {
      "type": "Feature",
      "geometry": {
        "type": "Point",
        "coordinates": [
          -77.46718897,
          37.55175263
        ]
      },
      "properties": {
        "year": "1965",
        "chair1": "Jacqueline Hodges",
        "chair2": "",
        "clean_address": "117 N. Shields Ave.",
        "host_name": "Mr. & Mrs. Benjamin (Mary) Way.",
        "zip_code": 23220.0,
        "state_plane_x": 11782316.8987533,
        "state_plane_y": 3726088.48225777
      }
    },
    {
      "type": "Feature",
      "geometry": {
        "type": "Point",
        "coordinates": [
          -77.46715582,
          37.55188009
        ]
      },
      "properties": {
        "year": "1965",
        "chair1": "Jacqueline Hodges",
        "chair2": "",
        "clean_address": "121 N. Shields Ave.",
        "host_name": "Mr. J. L. Spiers, Jr.",
        "zip_code": 23220.0,
        "state_plane_x": 11782326.000113,
        "state_plane_y": 3726134.99496002
      }
    },
    {
      "type": "Feature",
      "geometry": {
        "type": "Point",
        "coordinates": [
          -77.45977155,
          37.55123119
        ]
      },
      "properties": {
        "year": "1966",
        "chair1": "Ann Carneal",
        "chair2": "",
        "clean_address": "1614 Hanover Ave.",
        "host_name": "Mr. & Mrs. H. Waldo (Virginia) Forster, Jr.",
        "zip_code": 23220.0,
        "state_plane_x": 11784469.1277165,
        "state_plane_y": 3725922.24046427
      }
    },
    {
      "type": "Feature",
      "geometry": {
        "type": "Point",
        "coordinates": [
          -77.46179382,
          37.5516028
        ]
      },
      "properties": {
        "year": "1966",
        "chair1": "Ann Carneal",
        "chair2": "",
        "clean_address": "1803 Hanover Ave.",
        "host_name": "Mr. & Mrs. George (Judith) Booker III",
        "zip_code": 23220.0,
        "state_plane_x": 11783881.4267922,
        "state_plane_y": 3726051.0860071
      }
    },
    {
      "type": "Feature",
      "geometry": {
        "type": "Point",
        "coordinates": [
          -77.46277667,
          37.55231467
        ]
      },
      "properties": {
        "year": "1966",
        "chair1": "Ann Carneal",
        "chair2": "",
        "clean_address": "1900 Hanover Ave.",
        "host_name": "Honorable & Mrs. Fred (Jane) Pollard",
        "zip_code": 23220.0,
        "state_plane_x": 11783593.6721184,
        "state_plane_y": 3726307.13962886
      }
    },
    {
      "type": "Feature",
      "geometry": {
        "type": "Point",
        "coordinates": [
          -77.46062187,
          37.55238561
        ]
      },
      "properties": {
        "year": "1966",
        "chair1": "Ann Carneal",
        "chair2": "",
        "clean_address": "1719 Park Ave.",
        "host_name": "Mr. & Mrs. David (Carlyle) Clinger",
        "zip_code": 23220.0,
        "state_plane_x": 11784218.0110928,
        "state_plane_y": 3726339.8413351
      }
    },
    {
      "type": "Feature",
      "geometry": {
        "type": "Point",
        "coordinates": [
          -77.46447775,
          37.55389539
        ]
      },
      "properties": {
        "year": "1966",
        "chair1": "Ann Carneal",
        "chair2": "",
        "clean_address": "2021 Stuart Ave.",
        "host_name": "Dr. & Mrs. Bennett (Susan) Malbon",
        "zip_code": 23220.0,
        "state_plane_x": 11783094.2607156,
        "state_plane_y": 3726877.25889544
      }
    },
    {
      "type": "Feature",
      "geometry": {
        "type": "Point",
        "coordinates": [
          -77.46412589,
          37.5537686
        ]
      },
      "properties": {
        "year": "1966",
        "chair1": "Ann Carneal",
        "chair2": "",
        "clean_address": "2013 Stuart Ave.",
        "host_name": "Mr. & Mrs. Dewitt B. (Josephine) Casler",
        "zip_code": 23220.0,
        "state_plane_x": 11783196.7608387,
        "state_plane_y": 3726832.2123976
      }
    },
    {
      "type": "Feature",
      "geometry": {
        "type": "Point",
        "coordinates": [
          -77.46409219,
          37.55411314
        ]
      },
      "properties": {
        "year": "1966",
        "chair1": "Ann Carneal",
        "chair2": "",
        "clean_address": "2020 Stuart Ave.",
        "host_name": "Mr. & Mrs. Robert (Ann) Burrus",
        "zip_code": 23220.0,
        "state_plane_x": 11783205.1522261,
        "state_plane_y": 3726957.76660843
      }
    },
    {
      "type": "Feature",
      "geometry": {
        "type": "Point",
        "coordinates": [
          -77.46298615,
          37.55105153
        ]
      },
      "properties": {
        "year": "1967",
        "chair1": "Mary Harrison",
        "chair2": "",
        "clean_address": "1824 Grove Ave.",
        "host_name": "Miss Anne Ryland",
        "zip_code": 23220.0,
        "state_plane_x": 11783538.0026103,
        "state_plane_y": 3725846.57230853
      }
    },
    {
      "type": "Feature",
      "geometry": {
        "type": "Point",
        "coordinates": [
          -77.46057288,
          37.5544688
        ]
      },
      "properties": {
        "year": "1967",
        "chair1": "Mary Harrison",
        "chair2": "",
        "clean_address": "1810 Monument Ave.",
        "host_name": "Mr. George T. Williamson",
        "zip_code": 23220.0,
        "state_plane_x": 11784223.8595063,
        "state_plane_y": 3727098.47334802
      }
    },
    {
      "type": "Feature",
      "geometry": {
        "type": "Point",
        "coordinates": [
          -77.45719613,
          37.55001558
        ]
      },
      "properties": {
        "year": "1967",
        "chair1": "Mary Harrison",
        "chair2": "",
        "clean_address": "1414 Park Ave.",
        "host_name": "Mr. & Mrs. Kemp (Delores) Hyers",
        "zip_code": 23220.0,
        "state_plane_x": 11785220.5776572,
        "state_plane_y": 3725487.87978444
      }
    },
    {
      "type": "Feature",
      "geometry": {
        "type": "Point",
        "coordinates": [
          -77.45756411,
          37.55027977
        ]
      },
      "properties": {
        "year": "1967",
        "chair1": "Mary Harrison",
        "chair2": "",
        "clean_address": "1502 Park Ave.",
        "host_name": "Mr. & Mrs. O. Van Pelt (Virginia) Sessoms",
        "zip_code": 23220.0,
        "state_plane_x": 11785112.8429645,
        "state_plane_y": 3725582.89238968
      }
    },
    {
      "type": "Feature",
      "geometry": {
        "type": "Point",
        "coordinates": [
          -77.46659295,
          37.55296063
        ]
      },
      "properties": {
        "year": "1967",
        "chair1": "Mary Harrison",
        "chair2": "",
        "clean_address": "207 N. Shields Ave.",
        "host_name": "Mr. Otto N. Williams, Jr.",
        "zip_code": 23220.0,
        "state_plane_x": 11782484.8551103,
        "state_plane_y": 3726530.19758169
      }
    },
    {
      "type": "Feature",
      "geometry": {
        "type": "Point",
        "coordinates": [
          -77.46312571,
          37.55342517
        ]
      },
      "properties": {
        "year": "1967",
        "chair1": "Mary Harrison",
        "chair2": "",
        "clean_address": "1921 Stuart Ave.",
        "host_name": "Mr. & Mrs. Frederick (Elizabeth) Cox",
        "zip_code": 23220.0,
        "state_plane_x": 11783488.0558598,
        "state_plane_y": 3726710.3543736
      }
    },
    {
      "type": "Feature",
      "geometry": {
        "type": "Point",
        "coordinates": [
          -77.46810824,
          37.55339639
        ]
      },
      "properties": {
        "year": "1968",
        "chair1": "",
        "chair2": "",
        "clean_address": "204 Strawberry St.",
        "host_name": "Mr. & Mrs. George C. (Mary) Harris",
        "zip_code": 23220.0,
        "state_plane_x": 11782043.87863,
        "state_plane_y": 3726684.05062044
      }
    },
    {
      "type": "Feature",
      "geometry": {
        "type": "Point",
        "coordinates": [
          -77.46058799,
          37.55286268
        ]
      },
      "properties": {
        "year": "1968",
        "chair1": "",
        "chair2": "",
        "clean_address": "403 N. Allen Ave.",
        "host_name": "Mr. & Mrs. Harrison Ruffin (Payne) Tyler",
        "zip_code": 23220.0,
        "state_plane_x": 11784225.9182292,
        "state_plane_y": 3726513.64774603
      }
    },
    {
      "type": "Feature",
      "geometry": {
        "type": "Point",
        "coordinates": [
          -77.46319949,
          37.55075248
        ]
      },
      "properties": {
        "year": "1968",
        "chair1": "",
        "chair2": "",
        "clean_address": "1823 Grove Ave.",
        "host_name": "Mr. & Mrs. Jack R. (Clara) Powell",
        "zip_code": 23220.0,
        "state_plane_x": 11783477.3557499,
        "state_plane_y": 3725737.01347251
      }
    },
    {
      "type": "Feature",
      "geometry": {
        "type": "Point",
        "coordinates": [
          -77.46572855,
          37.5529938
        ]
      },
      "properties": {
        "year": "1968",
        "chair1": "",
        "chair2": "",
        "clean_address": "2109 Hanover Ave.",
        "host_name": "Mr. & Mrs. Charles P. “Jed” (Betty) Wilson",
        "zip_code": 23220.0,
        "state_plane_x": 11782735.2880084,
        "state_plane_y": 3726545.01874627
      }
    },
    {
      "type": "Feature",
      "geometry": {
        "type": "Point",
        "coordinates": [
          -77.46948975,
          37.55703002
        ]
      },
      "properties": {
        "year": "1968",
        "chair1": "",
        "chair2": "",
        "clean_address": "2511 Kensington Ave.",
        "host_name": "Mr. R. W. Minnich",
        "zip_code": 23220.0,
        "state_plane_x": 11781628.977885,
        "state_plane_y": 3728002.65756327
      }
    },
    {
      "type": "Feature",
      "geometry": {
        "type": "Point",
        "coordinates": [
          -77.46686505,
          37.55753853
        ]
      },
      "properties": {
        "year": "1968",
        "chair1": "",
        "chair2": "",
        "clean_address": "2319 Monument Ave.",
        "host_name": "Mr. & Mrs. T. S. (Philippa) Osdene",
        "zip_code": 23220.0,
        "state_plane_x": 11782387.7388347,
        "state_plane_y": 3728196.1191186
      }
    },
    {
      "type": "Feature",
      "geometry": {
        "type": "Point",
        "coordinates": [
          -77.45753263,
          37.54987055
        ]
      },
      "properties": {
        "year": "1968",
        "chair1": "",
        "chair2": "",
        "clean_address": "1419 Park Ave.",
        "host_name": "Mr. Robert L. Hill",
        "zip_code": 23220.0,
        "state_plane_x": 11785123.6162369,
        "state_plane_y": 3725433.99800244
      }
    },
    {
      "type": "Feature",
      "geometry": {
        "type": "Point",
        "coordinates": [
          -77.45691043,
          37.55093203
        ]
      },
      "properties": {
        "year": "1968",
        "chair1": "",
        "chair2": "",
        "clean_address": "1500 West Ave.",
        "host_name": "Mr. & Mrs. Matthew L. (Avianna) London",
        "zip_code": 23220.0,
        "state_plane_x": 11785299.7110291,
        "state_plane_y": 3725822.46933836
      }
    },
    {
      "type": "Feature",
      "geometry": {
        "type": "Point",
        "coordinates": [
          -77.46189642,
          37.55127561
        ]
      },
      "properties": {
        "year": "1969",
        "chair1": "Reba McVey",
        "chair2": "",
        "clean_address": "208 N. Allen Ave.",
        "host_name": "Dr. & Mrs. Walter (Patricia) Coppedge",
        "zip_code": 23220.0,
        "state_plane_x": 11783852.9960748,
        "state_plane_y": 3725931.63184969
      }
    },
    {
      "type": "Feature",
      "geometry": {
        "type": "Point",
        "coordinates": [
          -77.46161965,
          37.55118128
        ]
      },
      "properties": {
        "year": "1969",
        "chair1": "Reba McVey",
        "chair2": "",
        "clean_address": "209 N. Allen Ave.",
        "host_name": "Dr. & Mrs. Robert A. (Leandra) Armour",
        "zip_code": 23220.0,
        "state_plane_x": 11783933.6035251,
        "state_plane_y": 3725898.17030244
      }
    },
    {
      "type": "Feature",
      "geometry": {
        "type": "Point",
        "coordinates": [
          -77.46475759,
          37.54985239
        ]
      },
      "properties": {
        "year": "1969",
        "chair1": "Reba McVey",
        "chair2": "",
        "clean_address": "1913 Floyd Ave.",
        "host_name": "Mr. James Corum",
        "zip_code": 23220.0,
        "state_plane_x": 11783029.2851238,
        "state_plane_y": 3725404.33828485
      }
    },
    {
      "type": "Feature",
      "geometry": {
        "type": "Point",
        "coordinates": [
          -77.45696135,
          37.54888432
        ]
      },
      "properties": {
        "year": "1969",
        "chair1": "Reba McVey",
        "chair2": "",
        "clean_address": "1308 Grove Ave.",
        "host_name": "Dr. Waverley Cole & Mr. John Cook",
        "zip_code": 23220.0,
        "state_plane_x": 11785293.1890605,
        "state_plane_y": 3725076.75101352
      }
    },
    {
      "type": "Feature",
      "geometry": {
        "type": "Point",
        "coordinates": [
          -77.4681087,
          37.55243403
        ]
      },
      "properties": {
        "year": "1969",
        "chair1": "Reba McVey",
        "chair2": "",
        "clean_address": "2221 Grove Ave.",
        "host_name": "Mr. & Mrs. Willson (Anne) Cragie",
        "zip_code": 23220.0,
        "state_plane_x": 11782047.5764573,
        "state_plane_y": 3726333.66090126
      }
    },
    {
      "type": "Feature",
      "geometry": {
        "type": "Point",
        "coordinates": [
          -77.46302744,
          37.55204662
        ]
      },
      "properties": {
        "year": "1969",
        "chair1": "Reba McVey",
        "chair2": "",
        "clean_address": "1903 Hanover Ave.",
        "host_name": "Mr. & Mrs. John (Eugenia) Oakey, Jr.",
        "zip_code": 23220.0,
        "state_plane_x": 11783522.052839,
        "state_plane_y": 3726208.7471091
      }
    },
    {
      "type": "Feature",
      "geometry": {
        "type": "Point",
        "coordinates": [
          -77.45517463,
          37.54959076
        ]
      },
      "properties": {
        "year": "1969",
        "chair1": "Reba McVey",
        "chair2": "",
        "clean_address": "1003 West Ave.",
        "host_name": "Miss Elizabeth Tompkins",
        "zip_code": 23220.0,
        "state_plane_x": 11785808.2877679,
        "state_plane_y": 3725339.68618318
      }
    },
    {
      "type": "Feature",
      "geometry": {
        "type": "Point",
        "coordinates": [
          -77.45877656,
          37.54957151
        ]
      },
      "properties": {
        "year": "1970",
        "chair1": "Eugenia Oakey",
        "chair2": "",
        "clean_address": "1508 Grove Ave.",
        "host_name": "Mr. & Mrs. Steven (Ruby) Suggs",
        "zip_code": 23220.0,
        "state_plane_x": 11784764.2193179,
        "state_plane_y": 3725321.1406166
      }
    },
    {
      "type": "Feature",
      "geometry": {
        "type": "Point",
        "coordinates": [
          -77.45848969,
          37.55041151
        ]
      },
      "properties": {
        "year": "1970",
        "chair1": "Eugenia Oakey",
        "chair2": "",
        "clean_address": "1511 Hanover Ave.",
        "host_name": "Dr. & Mrs. Ivan (Patricia) Lipman",
        "zip_code": 23220.0,
        "state_plane_x": 11784844.0059038,
        "state_plane_y": 3725627.89689286
      }
    },
    {
      "type": "Feature",
      "geometry": {
        "type": "Point",
        "coordinates": [
          -77.45674363,
          37.54974196
        ]
      },
      "properties": {
        "year": "1970",
        "chair1": "Eugenia Oakey",
        "chair2": "",
        "clean_address": "1306 Park Ave.",
        "host_name": "Mr. & Mrs. E. Cofer (Shirlee) Loomer",
        "zip_code": 23220.0,
        "state_plane_x": 11785352.8500304,
        "state_plane_y": 3725389.70576818
      }
    },
    {
      "type": "Feature",
      "geometry": {
        "type": "Point",
        "coordinates": [
          -77.45750805,
          37.550244
        ]
      },
      "properties": {
        "year": "1970",
        "chair1": "Eugenia Oakey",
        "chair2": "",
        "clean_address": "1500 Park Ave.",
        "host_name": "Mr. & Mrs. James (Laura) Welch",
        "zip_code": 23220.0,
        "state_plane_x": 11785129.2389291,
        "state_plane_y": 3725570.04956761
      }
    },
    {
      "type": "Feature",
      "geometry": {
        "type": "Point",
        "coordinates": [
          -77.45649288,
          37.55066457
        ]
      },
      "properties": {
        "year": "1970",
        "chair1": "Eugenia Oakey",
        "chair2": "",
        "clean_address": "1138 West Ave.",
        "host_name": "Mr. & Mrs. Hugh (Anne) Truesdale",
        "zip_code": 23220.0,
        "state_plane_x": 11785421.8265985,
        "state_plane_y": 3725726.42622335
      }
    },
    {
      "type": "Feature",
      "geometry": {
        "type": "Point",
        "coordinates": [
          -77.4622382,
          37.55177447
        ]
      },
      "properties": {
        "year": "1971",
        "chair1": "Mary Harris",
        "chair2": "",
        "clean_address": "1819 Hanover Ave.",
        "host_name": "Mr. & Mrs. William (Jan) Wienckowski",
        "zip_code": 23220.0,
        "state_plane_x": 11783751.9254108,
        "state_plane_y": 3726112.17348336
      }
    },
    {
      "type": "Feature",
      "geometry": {
        "type": "Point",
        "coordinates": [
          -77.46686505,
          37.55753853
        ]
      },
      "properties": {
        "year": "1971",
        "chair1": "Mary Harris",
        "chair2": "",
        "clean_address": "2319 Monument Ave.",
        "host_name": "Mr. & Mrs. Harry M. (Barbara) Jacobs",
        "zip_code": 23220.0,
        "state_plane_x": 11782387.7388347,
        "state_plane_y": 3728196.1191186
      }
    },
    {
      "type": "Feature",
      "geometry": {
        "type": "Point",
        "coordinates": [
          -77.46776367,
          37.5587583
        ]
      },
      "properties": {
        "year": "1971",
        "chair1": "Mary Harris",
        "chair2": "",
        "clean_address": "2502 Monument Ave.",
        "host_name": "Dr. & Mrs. H. S. (Gaile) Zfass",
        "zip_code": 23220.0,
        "state_plane_x": 11782122.4129218,
        "state_plane_y": 3728637.38267177
      }
    },
    {
      "type": "Feature",
      "geometry": {
        "type": "Point",
        "coordinates": [
          -77.46232836,
          37.55383013
        ]
      },
      "properties": {
        "year": "1971",
        "chair1": "Mary Harris",
        "chair2": "",
        "clean_address": "1824 Park Ave.",
        "host_name": "Dr. & Mrs. Reno (Sonia) Vlahcevic",
        "zip_code": 23220.0,
        "state_plane_x": 11783717.5629467,
        "state_plane_y": 3726860.33734135
      }
    },
    {
      "type": "Feature",
      "geometry": {
        "type": "Point",
        "coordinates": [
          -77.46743956,
          37.55709044
        ]
      },
      "properties": {
        "year": "1971",
        "chair1": "Mary Harris",
        "chair2": "",
        "clean_address": "2402 Park Ave.",
        "host_name": "Mr. & Mrs. Thomas O. (Millie) Jones",
        "zip_code": 23220.0,
        "state_plane_x": 11782223.000319,
        "state_plane_y": 3728031.15127268
      }
    },
    {
      "type": "Feature",
      "geometry": {
        "type": "Point",
        "coordinates": [
          -77.46447775,
          37.55389539
        ]
      },
      "properties": {
        "year": "1971",
        "chair1": "Mary Harris",
        "chair2": "",
        "clean_address": "2021 Stuart Ave.",
        "host_name": "Dr. & Mrs. Bennett (Susan) Malbon",
        "zip_code": 23220.0,
        "state_plane_x": 11783094.2607156,
        "state_plane_y": 3726877.25889544
      }
    },
    {
      "type": "Feature",
      "geometry": {
        "type": "Point",
        "coordinates": [
          -77.45728157,
          37.55265759
        ]
      },
      "properties": {
        "year": "1972",
        "chair1": "Barbara McLeod",
        "chair2": "",
        "clean_address": "503 Stuart Cir.",
        "host_name": "St. John’s United Church of Christ",
        "zip_code": 23220.0,
        "state_plane_x": 11785185.1853395,
        "state_plane_y": 3726449.54616819
      }
    },
    {
      "type": "Feature",
      "geometry": {
        "type": "Point",
        "coordinates": [
          -77.46795549,
          37.55772879
        ]
      },
      "properties": {
        "year": "1972",
        "chair1": "Barbara McLeod",
        "chair2": "",
        "clean_address": "605 N. Davis Ave.",
        "host_name": "Mr. David E. Martin",
        "zip_code": 23220.0,
        "state_plane_x": 11782070.9130248,
        "state_plane_y": 3728261.93361951
      }
    },
    {
      "type": "Feature",
      "geometry": {
        "type": "Point",
        "coordinates": [
          -77.46185343,
          37.5519937
        ]
      },
      "properties": {
        "year": "1972",
        "chair1": "Barbara McLeod",
        "chair2": "",
        "clean_address": "1808 Hanover Ave.",
        "host_name": "Mr. & Mrs. Henry (Reba) McVey III",
        "zip_code": 23220.0,
        "state_plane_x": 11783862.5833259,
        "state_plane_y": 3726193.21826872
      }
    },
    {
      "type": "Feature",
      "geometry": {
        "type": "Point",
        "coordinates": [
          -77.46955523,
          37.55706228
        ]
      },
      "properties": {
        "year": "1972",
        "chair1": "Barbara McLeod",
        "chair2": "",
        "clean_address": "2513 Kensington Ave.",
        "host_name": "Mr. & Mrs. Walter Thomas (Marion) Davis",
        "zip_code": 23220.0,
        "state_plane_x": 11781609.8693274,
        "state_plane_y": 3728014.19526985
      }
    },
    {
      "type": "Feature",
      "geometry": {
        "type": "Point",
        "coordinates": [
          -77.46337154,
          37.5539449
        ]
      },
      "properties": {
        "year": "1972",
        "chair1": "Barbara McLeod",
        "chair2": "",
        "clean_address": "404 N. Meadow St.",
        "host_name": "Mr. & Mrs. William (Brenda) Wilkins, Jr.",
        "zip_code": 23220.0,
        "state_plane_x": 11783414.7170957,
        "state_plane_y": 3726898.80445603
      }
    },
    {
      "type": "Feature",
      "geometry": {
        "type": "Point",
        "coordinates": [
          -77.46903851,
          37.55883694
        ]
      },
      "properties": {
        "year": "1972",
        "chair1": "Barbara McLeod",
        "chair2": "",
        "clean_address": "2601 Monument Ave.",
        "host_name": "Mr.  & Mrs. Sydney (Frances) Lewis",
        "zip_code": 23220.0,
        "state_plane_x": 11781752.5868898,
        "state_plane_y": 3728661.97579844
      }
    },
    {
      "type": "Feature",
      "geometry": {
        "type": "Point",
        "coordinates": [
          -77.46923707,
          37.55894976
        ]
      },
      "properties": {
        "year": "1972",
        "chair1": "Barbara McLeod",
        "chair2": "",
        "clean_address": "2605 Monument Ave.",
        "host_name": "Mr. & Mrs. Walter (Zayde) Dotts, Jr.",
        "zip_code": 23220.0,
        "state_plane_x": 11781694.5870058,
        "state_plane_y": 3728702.42223986
      }
    },
    {
      "type": "Feature",
      "geometry": {
        "type": "Point",
        "coordinates": [
          -77.45728157,
          37.55265759
        ]
      },
      "properties": {
        "year": "1973",
        "chair1": "Gaile Zfass",
        "chair2": "",
        "clean_address": "503 Stuart Cir.",
        "host_name": "St. John’s United Church of Christ",
        "zip_code": 23220.0,
        "state_plane_x": 11785185.1853395,
        "state_plane_y": 3726449.54616819
      }
    },
    {
      "type": "Feature",
      "geometry": {
        "type": "Point",
        "coordinates": [
          -77.45685022,
          37.54848603
        ]
      },
      "properties": {
        "year": "1973",
        "chair1": "Gaile Zfass",
        "chair2": "",
        "clean_address": "1305 Grove Ave.",
        "host_name": "Mr. & Mrs. W. Lee (Shirley) Whetstone, Jr.",
        "zip_code": 23220.0,
        "state_plane_x": 11785327.0062501,
        "state_plane_y": 3724932.08988552
      }
    },
    {
      "type": "Feature",
      "geometry": {
        "type": "Point",
        "coordinates": [
          -77.46223296,
          37.55077829
        ]
      },
      "properties": {
        "year": "1973",
        "chair1": "Gaile Zfass",
        "chair2": "",
        "clean_address": "1802 Grove Ave.",
        "host_name": "Mr. & Mrs. William (Rebecca) Perrine",
        "zip_code": 23220.0,
        "state_plane_x": 11783757.4299929,
        "state_plane_y": 3725749.4862166
      }
    },
    {
      "type": "Feature",
      "geometry": {
        "type": "Point",
        "coordinates": [
          -77.46439205,
          37.55252935
        ]
      },
      "properties": {
        "year": "1973",
        "chair1": "Gaile Zfass",
        "chair2": "",
        "clean_address": "2005 Hanover Ave.",
        "host_name": "Mr. R. W. Minnich",
        "zip_code": 23220.0,
        "state_plane_x": 11783124.5582272,
        "state_plane_y": 3726380.1640891
      }
    },
    {
      "type": "Feature",
      "geometry": {
        "type": "Point",
        "coordinates": [
          -77.45911061,
          37.55105371
        ]
      },
      "properties": {
        "year": "1973",
        "chair1": "Gaile Zfass",
        "chair2": "",
        "clean_address": "302 N. Lombardy St.",
        "host_name": "Mr. & Mrs. Ethan Allen Call",
        "zip_code": 23220.0,
        "state_plane_x": 11784661.4334343,
        "state_plane_y": 3725859.73041868
      }
    },
    {
      "type": "Feature",
      "geometry": {
        "type": "Point",
        "coordinates": [
          -77.46526718,
          37.55725979
        ]
      },
      "properties": {
        "year": "1973",
        "chair1": "Gaile Zfass",
        "chair2": "",
        "clean_address": "2234 Monument Ave.",
        "host_name": "Mr. & Mrs. T. B. (Cath) Neblett",
        "zip_code": 23220.0,
        "state_plane_x": 11782852.0003734,
        "state_plane_y": 3728099.70625369
      }
    },
    {
      "type": "Feature",
      "geometry": {
        "type": "Point",
        "coordinates": [
          -77.46942015,
          37.5590589
        ]
      },
      "properties": {
        "year": "1973",
        "chair1": "Gaile Zfass",
        "chair2": "",
        "clean_address": "2607 Monument Ave.",
        "host_name": "Mr.  & Mrs. Andrew (Jessie) Lewis",
        "zip_code": 23220.0,
        "state_plane_x": 11781641.0871128,
        "state_plane_y": 3728741.58193843
      }
    },
    {
      "type": "Feature",
      "geometry": {
        "type": "Point",
        "coordinates": [
          -77.47045159,
          37.56034966
        ]
      },
      "properties": {
        "year": "1973",
        "chair1": "Gaile Zfass",
        "chair2": "",
        "clean_address": "2712 Monument Ave.",
        "host_name": "Mr. & Mrs. David (Carlyle) Clinger",
        "zip_code": 23220.0,
        "state_plane_x": 11781337.0004506,
        "state_plane_y": 3729208.27949585
      }
    },
    {
      "type": "Feature",
      "geometry": {
        "type": "Point",
        "coordinates": [
          -77.45728157,
          37.55265759
        ]
      },
      "properties": {
        "year": "1974",
        "chair1": "June Crump",
        "chair2": "",
        "clean_address": "503 Stuart Cir.",
        "host_name": "St. John’s United Church of Christ",
        "zip_code": 23220.0,
        "state_plane_x": 11785185.1853395,
        "state_plane_y": 3726449.54616819
      }
    },
    {
      "type": "Feature",
      "geometry": {
        "type": "Point",
        "coordinates": [
          -77.45675931,
          37.54846129
        ]
      },
      "properties": {
        "year": "1974",
        "chair1": "June Crump",
        "chair2": "",
        "clean_address": "1303 Grove Ave.",
        "host_name": "Mr. & Mrs. Charles (Linda) Dalch",
        "zip_code": 23220.0,
        "state_plane_x": 11785353.4576408,
        "state_plane_y": 3724923.37402369
      }
    },
    {
      "type": "Feature",
      "geometry": {
        "type": "Point",
        "coordinates": [
          -77.46335049,
          37.55080924
        ]
      },
      "properties": {
        "year": "1974",
        "chair1": "June Crump",
        "chair2": "",
        "clean_address": "1827 Grove Ave.",
        "host_name": "Dr. & Mrs. Harold (Mary) Gillespie",
        "zip_code": 23220.0,
        "state_plane_x": 11783433.3558379,
        "state_plane_y": 3725757.19879961
      }
    },
    {
      "type": "Feature",
      "geometry": {
        "type": "Point",
        "coordinates": [
          -77.46201352,
          37.55168153
        ]
      },
      "properties": {
        "year": "1974",
        "chair1": "June Crump",
        "chair2": "",
        "clean_address": "1809 Hanover Ave.",
        "host_name": "Dr. & Mrs. Robert (Janet) Heltzel",
        "zip_code": 23220.0,
        "state_plane_x": 11783817.4269202,
        "state_plane_y": 3726079.04986194
      }
    },
    {
      "type": "Feature",
      "geometry": {
        "type": "Point",
        "coordinates": [
          -77.46371612,
          37.55264268
        ]
      },
      "properties": {
        "year": "1974",
        "chair1": "June Crump",
        "chair2": "",
        "clean_address": "1924 Hanover Ave.",
        "host_name": "Mr. Frank Eck",
        "zip_code": 23220.0,
        "state_plane_x": 11783320.0388074,
        "state_plane_y": 3726423.57574768
      }
    },
    {
      "type": "Feature",
      "geometry": {
        "type": "Point",
        "coordinates": [
          -77.46570805,
          37.55337283
        ]
      },
      "properties": {
        "year": "1974",
        "chair1": "June Crump",
        "chair2": "",
        "clean_address": "2112 Hanover Ave.",
        "host_name": "Mr. Miles J. Rudisill, Jr.",
        "zip_code": 23220.0,
        "state_plane_x": 11782739.7174614,
        "state_plane_y": 3726683.08703968
      }
    },
    {
      "type": "Feature",
      "geometry": {
        "type": "Point",
        "coordinates": [
          -77.46925107,
          37.55695002
        ]
      },
      "properties": {
        "year": "1974",
        "chair1": "June Crump",
        "chair2": "",
        "clean_address": "2505 Kensington Ave.",
        "host_name": "Mr. & Mrs. Norman (Janet) Polo",
        "zip_code": 23220.0,
        "state_plane_x": 11781698.4780741,
        "state_plane_y": 3727974.28622894
      }
    },
    {
      "type": "Feature",
      "geometry": {
        "type": "Point",
        "coordinates": [
          -77.45840285,
          37.55111614
        ]
      },
      "properties": {
        "year": "1974",
        "chair1": "June Crump",
        "chair2": "",
        "clean_address": "1534 Park Ave.",
        "host_name": "Mr. James Corum",
        "zip_code": 23220.0,
        "state_plane_x": 11784866.3496911,
        "state_plane_y": 3725884.72380702
      }
    },
    {
      "type": "Feature",
      "geometry": {
        "type": "Point",
        "coordinates": [
          -77.46161413,
          37.55287435
        ]
      },
      "properties": {
        "year": "1974",
        "chair1": "June Crump",
        "chair2": "",
        "clean_address": "1815 Park Ave.",
        "host_name": "Mr.  & Mrs. Randolph (Phyllis) Neal",
        "zip_code": 23220.0,
        "state_plane_x": 11783928.422105,
        "state_plane_y": 3726514.62215352
      }
    },
    {
      "type": "Feature",
      "geometry": {
        "type": "Point",
        "coordinates": [
          -77.46280935,
          37.55098882
        ]
      },
      "properties": {
        "year": "1975",
        "chair1": "Rita Earl",
        "chair2": "",
        "clean_address": "1818 Grove Ave.",
        "host_name": "Mr. & Mrs. Marvin A. (Frances) Harrison",
        "zip_code": 23220.0,
        "state_plane_x": 11783589.5028354,
        "state_plane_y": 3725824.30463652
      }
    },
    {
      "type": "Feature",
      "geometry": {
        "type": "Point",
        "coordinates": [
          -77.46289686,
          37.55102251
        ]
      },
      "properties": {
        "year": "1975",
        "chair1": "Rita Earl",
        "chair2": "",
        "clean_address": "1820 Grove Ave.",
        "host_name": "Mr. & Mrs. Stewart (Jane) Medlin",
        "zip_code": 23220.0,
        "state_plane_x": 11783564.0025583,
        "state_plane_y": 3725836.29181726
      }
    },
    {
      "type": "Feature",
      "geometry": {
        "type": "Point",
        "coordinates": [
          -77.46298615,
          37.55105153
        ]
      },
      "properties": {
        "year": "1975",
        "chair1": "Rita Earl",
        "chair2": "",
        "clean_address": "1824 Grove Ave.",
        "host_name": "Miss Anne Ryland",
        "zip_code": 23220.0,
        "state_plane_x": 11783538.0026103,
        "state_plane_y": 3725846.57230853
      }
    },
    {
      "type": "Feature",
      "geometry": {
        "type": "Point",
        "coordinates": [
          -77.46327848,
          37.55077805
        ]
      },
      "properties": {
        "year": "1975",
        "chair1": "Rita Earl",
        "chair2": "",
        "clean_address": "1825 Grove Ave.",
        "host_name": "Mr. & Mrs. William (Ann) Carleton",
        "zip_code": 23220.0,
        "state_plane_x": 11783454.3557959,
        "state_plane_y": 3725746.07218143
      }
    },
    {
      "type": "Feature",
      "geometry": {
        "type": "Point",
        "coordinates": [
          -77.46309935,
          37.55107996
        ]
      },
      "properties": {
        "year": "1975",
        "chair1": "Rita Earl",
        "chair2": "",
        "clean_address": "1826 Grove Ave.",
        "host_name": "Mr. & Mrs. Alexander (Mary Sabra) Monroe",
        "zip_code": 23220.0,
        "state_plane_x": 11783505.0745265,
        "state_plane_y": 3725856.56474261
      }
    },
    {
      "type": "Feature",
      "geometry": {
        "type": "Point",
        "coordinates": [
          -77.46365496,
          37.55094108
        ]
      },
      "properties": {
        "year": "1975",
        "chair1": "Rita Earl",
        "chair2": "",
        "clean_address": "1903 Grove Ave.",
        "host_name": "Mr. & Mrs. Robert T. C. (Barbara) Cone",
        "zip_code": 23220.0,
        "state_plane_x": 11783344.568942,
        "state_plane_y": 3725804.22921735
      }
    },
    {
      "type": "Feature",
      "geometry": {
        "type": "Point",
        "coordinates": [
          -77.46386614,
          37.55136861
        ]
      },
      "properties": {
        "year": "1975",
        "chair1": "Rita Earl",
        "chair2": "",
        "clean_address": "1910 Grove Ave.",
        "host_name": "Mr. & Mrs. George (Betty) Kennedy",
        "zip_code": 23220.0,
        "state_plane_x": 11783281.6441991,
        "state_plane_y": 3725959.21808061
      }
    },
    {
      "type": "Feature",
      "geometry": {
        "type": "Point",
        "coordinates": [
          -77.46891095,
          37.55715189
        ]
      },
      "properties": {
        "year": "1975",
        "chair1": "Rita Earl",
        "chair2": "",
        "clean_address": "2500 Kensington Ave.",
        "host_name": "Mr. George Ruark",
        "zip_code": 23220.0,
        "state_plane_x": 11781796.2619993,
        "state_plane_y": 3728048.86088294
      }
    },
    {
      "type": "Feature",
      "geometry": {
        "type": "Point",
        "coordinates": [
          -77.4694124,
          37.55700969
        ]
      },
      "properties": {
        "year": "1975",
        "chair1": "Rita Earl",
        "chair2": "",
        "clean_address": "2509 Kensington Ave.",
        "host_name": "Mr. & Mrs. Robert (Edna) Kirby",
        "zip_code": 23220.0,
        "state_plane_x": 11781651.4781681,
        "state_plane_y": 3727995.50108153
      }
    },
    {
      "type": "Feature",
      "geometry": {
        "type": "Point",
        "coordinates": [
          -77.46949015,
          37.55740025
        ]
      },
      "properties": {
        "year": "1975",
        "chair1": "Rita Earl",
        "chair2": "",
        "clean_address": "2510 Kensington Ave.",
        "host_name": "Mr. Allen Barringer",
        "zip_code": 23220.0,
        "state_plane_x": 11781627.3916021,
        "state_plane_y": 3728137.45716244
      }
    },
    {
      "type": "Feature",
      "geometry": {
        "type": "Point",
        "coordinates": [
          -77.46955523,
          37.55706228
        ]
      },
      "properties": {
        "year": "1975",
        "chair1": "Rita Earl",
        "chair2": "",
        "clean_address": "2513 Kensington Ave.",
        "host_name": "Mr. William B. Reynolds",
        "zip_code": 23220.0,
        "state_plane_x": 11781609.8693274,
        "state_plane_y": 3728014.19526985
      }
    },
    {
      "type": "Feature",
      "geometry": {
        "type": "Point",
        "coordinates": [
          -77.46997375,
          37.55720878
        ]
      },
      "properties": {
        "year": "1975",
        "chair1": "Rita Earl",
        "chair2": "",
        "clean_address": "2525 Kensington Ave.",
        "host_name": "Dr. & Mrs. David (Ronna) Saunders",
        "zip_code": 23220.0,
        "state_plane_x": 11781487.978167,
        "state_plane_y": 3728066.2118981
      }
    },
    {
      "type": "Feature",
      "geometry": {
        "type": "Point",
        "coordinates": [
          -77.4698296,
          37.55715392
        ]
      },
      "properties": {
        "year": "1975",
        "chair1": "Rita Earl",
        "chair2": "",
        "clean_address": "2521 Kensington Ave.",
        "host_name": "Mr. & Mrs. Harold G. (Mildred) Bell",
        "zip_code": 23220.0,
        "state_plane_x": 11781529.978083,
        "state_plane_y": 3728046.69553293
      }
    },
    {
      "type": "Feature",
      "geometry": {
        "type": "Point",
        "coordinates": [
          -77.46115916,
          37.55315779
        ]
      },
      "properties": {
        "year": "1976",
        "chair1": "Susan Council",
        "chair2": "",
        "clean_address": "402 N. Allen Ave.",
        "host_name": "Mr. & Mrs. William (Regena) Carreras",
        "zip_code": 23220.0,
        "state_plane_x": 11784059.1705312,
        "state_plane_y": 3726619.2718786
      }
    },
    {
      "type": "Feature",
      "geometry": {
        "type": "Point",
        "coordinates": [
          -77.46138353,
          37.55012512
        ]
      },
      "properties": {
        "year": "1976",
        "chair1": "Susan Council",
        "chair2": "",
        "clean_address": "1707 Grove Ave.",
        "host_name": "Mr. & Mrs. Drew St. J. (Anne) Carneal",
        "zip_code": 23220.0,
        "state_plane_x": 11784006.2808732,
        "state_plane_y": 3725514.38005953
      }
    },
    {
      "type": "Feature",
      "geometry": {
        "type": "Point",
        "coordinates": [
          -77.46456886,
          37.55259111
        ]
      },
      "properties": {
        "year": "1976",
        "chair1": "Susan Council",
        "chair2": "",
        "clean_address": "2009 Hanover Ave.",
        "host_name": "Mr. & Mrs. Richard (Bertha) Lane",
        "zip_code": 23220.0,
        "state_plane_x": 11783073.0580021,
        "state_plane_y": 3726402.08957018
      }
    },
    {
      "type": "Feature",
      "geometry": {
        "type": "Point",
        "coordinates": [
          -77.46664817,
          37.55808824
        ]
      },
      "properties": {
        "year": "1976",
        "chair1": "Susan Council",
        "chair2": "",
        "clean_address": "2326 Monument Ave.",
        "host_name": "Mr. & Mrs. Taylor (Helen) Reveley, III",
        "zip_code": 23220.0,
        "state_plane_x": 11782448.413254,
        "state_plane_y": 3728396.95303452
      }
    },
    {
      "type": "Feature",
      "geometry": {
        "type": "Point",
        "coordinates": [
          -77.45667063,
          37.54787997
        ]
      },
      "properties": {
        "year": "1976",
        "chair1": "Susan Council",
        "chair2": "",
        "clean_address": "108 N. Morris St.",
        "host_name": "Mr. Stanley G. Rothenberg",
        "zip_code": 23220.0,
        "state_plane_x": 11785381.5061411,
        "state_plane_y": 3724712.00502385
      }
    },
    {
      "type": "Feature",
      "geometry": {
        "type": "Point",
        "coordinates": [
          -77.45893773,
          37.54865633
        ]
      },
      "properties": {
        "year": "1976",
        "chair1": "Susan Council",
        "chair2": "",
        "clean_address": "106 N. Plum St.",
        "host_name": "Mr. Donald A. Parr",
        "zip_code": 23220.0,
        "state_plane_x": 11784721.1738004,
        "state_plane_y": 3724987.41424994
      }
    },
    {
      "type": "Feature",
      "geometry": {
        "type": "Point",
        "coordinates": [
          -77.46011295,
          37.55438788
        ]
      },
      "properties": {
        "year": "1977",
        "chair1": "Dina Pearsall",
        "chair2": "",
        "clean_address": "1800 Monument Ave.",
        "host_name": "Mr. & Mrs. Douglas W. (Carole) Conner",
        "zip_code": 23220.0,
        "state_plane_x": 11784357.5035959,
        "state_plane_y": 3727070.47832526
      }
    },
    {
      "type": "Feature",
      "geometry": {
        "type": "Point",
        "coordinates": [
          -77.46099253,
          37.55403106
        ]
      },
      "properties": {
        "year": "1977",
        "chair1": "Dina Pearsall",
        "chair2": "",
        "clean_address": "1811 Monument Ave.",
        "host_name": "Dr. Michael (Sydney) Camp",
        "zip_code": 23220.0,
        "state_plane_x": 11784103.9722789,
        "state_plane_y": 3726937.7554936
      }
    },
    {
      "type": "Feature",
      "geometry": {
        "type": "Point",
        "coordinates": [
          -77.46607347,
          37.55707201
        ]
      },
      "properties": {
        "year": "1977",
        "chair1": "Dina Pearsall",
        "chair2": "",
        "clean_address": "2301 Monument Ave.",
        "host_name": "Mr. & Mrs. Tazwell  M. (Virginia) Carrington, III",
        "zip_code": 23220.0,
        "state_plane_x": 11782619.043162,
        "state_plane_y": 3728028.77398081
      }
    },
    {
      "type": "Feature",
      "geometry": {
        "type": "Point",
        "coordinates": [
          -77.46574132,
          37.55754966
        ]
      },
      "properties": {
        "year": "1977",
        "chair1": "Dina Pearsall",
        "chair2": "",
        "clean_address": "2304 Monument Ave.",
        "host_name": "Dr. & Mrs. Harry J. (Martha) Warthen, Jr.",
        "zip_code": 23220.0,
        "state_plane_x": 11782713.4130521,
        "state_plane_y": 3728203.73885402
      }
    },
    {
      "type": "Feature",
      "geometry": {
        "type": "Point",
        "coordinates": [
          -77.46644886,
          37.55728892
        ]
      },
      "properties": {
        "year": "1977",
        "chair1": "Dina Pearsall",
        "chair2": "",
        "clean_address": "2309 Monument Ave.",
        "host_name": "Mr. & Mrs. Jack H. (Mary) Spain, Jr.",
        "zip_code": 23220.0,
        "state_plane_x": 11782509.3694969,
        "state_plane_y": 3728106.55991451
      }
    },
    {
      "type": "Feature",
      "geometry": {
        "type": "Point",
        "coordinates": [
          -77.46664391,
          37.55740548
        ]
      },
      "properties": {
        "year": "1977",
        "chair1": "Dina Pearsall",
        "chair2": "",
        "clean_address": "2315 Monument Ave.",
        "host_name": "Dr. & Mrs. John C. (Nancy) Booth III",
        "zip_code": 23220.0,
        "state_plane_x": 11782452.3692829,
        "state_plane_y": 3728148.37840043
      }
    },
    {
      "type": "Feature",
      "geometry": {
        "type": "Point",
        "coordinates": [
          -77.46654381,
          37.55802464
        ]
      },
      "properties": {
        "year": "1977",
        "chair1": "Dina Pearsall",
        "chair2": "",
        "clean_address": "2324 Monument Ave.",
        "host_name": "Mr. & Mrs. H. H. (Reba) McVey III",
        "zip_code": 23220.0,
        "state_plane_x": 11782478.913193,
        "state_plane_y": 3728374.12729277
      }
    },
    {
      "type": "Feature",
      "geometry": {
        "type": "Point",
        "coordinates": [
          -77.46923707,
          37.55894976
        ]
      },
      "properties": {
        "year": "1977",
        "chair1": "Dina Pearsall",
        "chair2": "",
        "clean_address": "2605 Monument Ave.",
        "host_name": "Mrs. Walter M. (Zayde) Dotts",
        "zip_code": 23220.0,
        "state_plane_x": 11781694.5870058,
        "state_plane_y": 3728702.42223986
      }
    },
    {
      "type": "Feature",
      "geometry": {
        "type": "Point",
        "coordinates": [
          -77.45685022,
          37.54848603
        ]
      },
      "properties": {
        "year": "1978",
        "chair1": "Mrs. H.C. Gosnell, Jr.",
        "chair2": "",
        "clean_address": "1305 Grove Ave.",
        "host_name": "Mr. & Mrs. W. Lee (Shirley) Whetstone, Jr.",
        "zip_code": 23220.0,
        "state_plane_x": 11785327.0062501,
        "state_plane_y": 3724932.08988552
      }
    },
    {
      "type": "Feature",
      "geometry": {
        "type": "Point",
        "coordinates": [
          -77.45921328,
          37.54933577
        ]
      },
      "properties": {
        "year": "1978",
        "chair1": "Mrs. H.C. Gosnell, Jr.",
        "chair2": "",
        "clean_address": "1515 Grove Ave.",
        "host_name": "Dr. Fred Alpern",
        "zip_code": 23220.0,
        "state_plane_x": 11784638.5673383,
        "state_plane_y": 3725233.91342886
      }
    },
    {
      "type": "Feature",
      "geometry": {
        "type": "Point",
        "coordinates": [
          -77.46502476,
          37.55142909
        ]
      },
      "properties": {
        "year": "1978",
        "chair1": "Mrs. H.C. Gosnell, Jr.",
        "chair2": "",
        "clean_address": "2007 Grove Ave.",
        "host_name": "Mr. & Mrs. Julian (Vienna) Taylor",
        "zip_code": 23220.0,
        "state_plane_x": 11782945.5434934,
        "state_plane_y": 3725977.5546581
      }
    },
    {
      "type": "Feature",
      "geometry": {
        "type": "Point",
        "coordinates": [
          -77.46501573,
          37.55311413
        ]
      },
      "properties": {
        "year": "1978",
        "chair1": "Mrs. H.C. Gosnell, Jr.",
        "chair2": "",
        "clean_address": "2024 Hanover Ave.",
        "host_name": "Mr. & Mrs. Gerald H. (Nancy) Stephan",
        "zip_code": 23220.0,
        "state_plane_x": 11782941.4352339,
        "state_plane_y": 3726591.09608194
      }
    },
    {
      "type": "Feature",
      "geometry": {
        "type": "Point",
        "coordinates": [
          -77.46542886,
          37.55289991
        ]
      },
      "properties": {
        "year": "1978",
        "chair1": "Mrs. H.C. Gosnell, Jr.",
        "chair2": "",
        "clean_address": "2101 Hanover Ave.",
        "host_name": "Ms. Anne Legge",
        "zip_code": 23220.0,
        "state_plane_x": 11782822.5358654,
        "state_plane_y": 3726511.78849778
      }
    },
    {
      "type": "Feature",
      "geometry": {
        "type": "Point",
        "coordinates": [
          -77.45753263,
          37.54987055
        ]
      },
      "properties": {
        "year": "1978",
        "chair1": "Mrs. H.C. Gosnell, Jr.",
        "chair2": "",
        "clean_address": "1419 Park Ave.",
        "host_name": "Mr. Stuart Siegel",
        "zip_code": 23220.0,
        "state_plane_x": 11785123.6162369,
        "state_plane_y": 3725433.99800244
      }
    },
    {
      "type": "Feature",
      "geometry": {
        "type": "Point",
        "coordinates": [
          -77.45973457,
          37.55225485
        ]
      },
      "properties": {
        "year": "1978",
        "chair1": "Mrs. H.C. Gosnell, Jr.",
        "chair2": "",
        "clean_address": "1630 Park Ave.",
        "host_name": "Mr. & Mrs. Donald G. (Brenda) Quinby",
        "zip_code": 23220.0,
        "state_plane_x": 11784475.7405642,
        "state_plane_y": 3726295.06353752
      }
    },
    {
      "type": "Feature",
      "geometry": {
        "type": "Point",
        "coordinates": [
          -77.46176421,
          37.55342569
        ]
      },
      "properties": {
        "year": "1978",
        "chair1": "Mrs. H.C. Gosnell, Jr.",
        "chair2": "",
        "clean_address": "1808 Park Ave.",
        "host_name": "Mr. & Mrs. James A. (Barbara) Jordan, Jr.",
        "zip_code": 23220.0,
        "state_plane_x": 11783882.7109104,
        "state_plane_y": 3726714.88290785
      }
    },
    {
      "type": "Feature",
      "geometry": {
        "type": "Point",
        "coordinates": [
          -77.45709919,
          37.55071188
        ]
      },
      "properties": {
        "year": "1978",
        "chair1": "Mrs. H.C. Gosnell, Jr.",
        "chair2": "",
        "clean_address": "1501 West Ave.",
        "host_name": "Mrs. Ruth Timmons",
        "zip_code": 23220.0,
        "state_plane_x": 11785245.8778034,
        "state_plane_y": 3725741.70801693
      }
    },
    {
      "type": "Feature",
      "geometry": {
        "type": "Point",
        "coordinates": [
          -77.4625509,
          37.55016748
        ]
      },
      "properties": {
        "year": "1979",
        "chair1": "Dixie Epes Hoggan",
        "chair2": "",
        "clean_address": "112 N. Allen Ave.",
        "host_name": "Mr. Richard P. Hankins, Jr.",
        "zip_code": 23220.0,
        "state_plane_x": 11783667.7103561,
        "state_plane_y": 3725526.08246394
      }
    },
    {
      "type": "Feature",
      "geometry": {
        "type": "Point",
        "coordinates": [
          -77.45981193,
          37.55467935
        ]
      },
      "properties": {
        "year": "1979",
        "chair1": "Dixie Epes Hoggan",
        "chair2": "",
        "clean_address": "500 N. Allen Ave.",
        "host_name": "The Martin Agency",
        "zip_code": 23220.0,
        "state_plane_x": 11784443.5887256,
        "state_plane_y": 3727177.56275678
      }
    },
    {
      "type": "Feature",
      "geometry": {
        "type": "Point",
        "coordinates": [
          -77.46795549,
          37.55772879
        ]
      },
      "properties": {
        "year": "1979",
        "chair1": "Dixie Epes Hoggan",
        "chair2": "",
        "clean_address": "605 N. Davis Ave.",
        "host_name": "Mr. J. Clarke Plaxco",
        "zip_code": 23220.0,
        "state_plane_x": 11782070.9130248,
        "state_plane_y": 3728261.93361951
      }
    },
    {
      "type": "Feature",
      "geometry": {
        "type": "Point",
        "coordinates": [
          -77.46069056,
          37.54854404
        ]
      },
      "properties": {
        "year": "1979",
        "chair1": "Dixie Epes Hoggan",
        "chair2": "",
        "clean_address": "1607 Floyd Ave.",
        "host_name": "Mr. & Mrs. Bruce (Patronella) Tyler",
        "zip_code": 23220.0,
        "state_plane_x": 11784213.4979784,
        "state_plane_y": 3724940.93271561
      }
    },
    {
      "type": "Feature",
      "geometry": {
        "type": "Point",
        "coordinates": [
          -77.46473535,
          37.55032125
        ]
      },
      "properties": {
        "year": "1979",
        "chair1": "Dixie Epes Hoggan",
        "chair2": "",
        "clean_address": "1922 Floyd Ave.",
        "host_name": "Dr. H. W. Leonhardt",
        "zip_code": 23220.0,
        "state_plane_x": 11783033.8602459,
        "state_plane_y": 3725575.11878319
      }
    },
    {
      "type": "Feature",
      "geometry": {
        "type": "Point",
        "coordinates": [
          -77.46317666,
          37.55687768
        ]
      },
      "properties": {
        "year": "1979",
        "chair1": "Dixie Epes Hoggan",
        "chair2": "",
        "clean_address": "2041 W. Grace St.",
        "host_name": "Mr. Robert W. Stewart",
        "zip_code": 23220.0,
        "state_plane_x": 11783459.4791453,
        "state_plane_y": 3727967.22915643
      }
    },
    {
      "type": "Feature",
      "geometry": {
        "type": "Point",
        "coordinates": [
          -77.46386614,
          37.55136861
        ]
      },
      "properties": {
        "year": "1979",
        "chair1": "Dixie Epes Hoggan",
        "chair2": "",
        "clean_address": "1910 Grove Ave.",
        "host_name": "Mr. & Mrs. George (Jo) Kennedy",
        "zip_code": 23220.0,
        "state_plane_x": 11783281.6441991,
        "state_plane_y": 3725959.21808061
      }
    },
    {
      "type": "Feature",
      "geometry": {
        "type": "Point",
        "coordinates": [
          -77.46764633,
          37.5537048
        ]
      },
      "properties": {
        "year": "1979",
        "chair1": "Dixie Epes Hoggan",
        "chair2": "",
        "clean_address": "2225 Hanover Ave.",
        "host_name": "Fan Poster Gallery",
        "zip_code": 23220.0,
        "state_plane_x": 11782176.5473279,
        "state_plane_y": 3726797.80334568
      }
    },
    {
      "type": "Feature",
      "geometry": {
        "type": "Point",
        "coordinates": [
          -77.46082082,
          37.55251338
        ]
      },
      "properties": {
        "year": "1979",
        "chair1": "Dixie Epes Hoggan",
        "chair2": "",
        "clean_address": "1725 Park Ave.",
        "host_name": "Mr. & Mrs. James (Patricia) Glave",
        "zip_code": 23220.0,
        "state_plane_x": 11784159.8278102,
        "state_plane_y": 3726385.72477353
      }
    },
    {
      "type": "Feature",
      "geometry": {
        "type": "Point",
        "coordinates": [
          -77.46464777,
          37.55029301
        ]
      },
      "properties": {
        "year": "1980",
        "chair1": "Janet Heltzel",
        "chair2": "",
        "clean_address": "1916 Floyd Ave.",
        "host_name": "Mr. & Mrs. Bob (Noretta) Taylor",
        "zip_code": 23220.0,
        "state_plane_x": 11783059.3605229,
        "state_plane_y": 3725565.11388193
      }
    },
    {
      "type": "Feature",
      "geometry": {
        "type": "Point",
        "coordinates": [
          -77.45194889,
          37.54864923
        ]
      },
      "properties": {
        "year": "1980",
        "chair1": "Janet Heltzel",
        "chair2": "",
        "clean_address": "821 W. Franklin St.",
        "host_name": "Ritter Hickok House, VCU",
        "zip_code": 23284.0,
        "state_plane_x": 11786747.1874649,
        "state_plane_y": 3725007.24852785
      }
    },
    {
      "type": "Feature",
      "geometry": {
        "type": "Point",
        "coordinates": [
          -77.45310401,
          37.54898114
        ]
      },
      "properties": {
        "year": "1980",
        "chair1": "Janet Heltzel",
        "chair2": "",
        "clean_address": "901 W. Franklin St.",
        "host_name": "Ginter House, VCU",
        "zip_code": 23220.0,
        "state_plane_x": 11786410.9929272,
        "state_plane_y": 3725124.37723055
      }
    },
    {
      "type": "Feature",
      "geometry": {
        "type": "Point",
        "coordinates": [
          -77.45268616,
          37.5495982
        ]
      },
      "properties": {
        "year": "1980",
        "chair1": "Janet Heltzel",
        "chair2": "",
        "clean_address": "910 W. Franklin St.",
        "host_name": "The President’s House, VCU",
        "zip_code": 23284.0,
        "state_plane_x": 11786529.629501,
        "state_plane_y": 3725350.38891768
      }
    },
    {
      "type": "Feature",
      "geometry": {
        "type": "Point",
        "coordinates": [
          -77.45696135,
          37.54888432
        ]
      },
      "properties": {
        "year": "1980",
        "chair1": "Janet Heltzel",
        "chair2": "",
        "clean_address": "1308 Grove Ave.",
        "host_name": "Dr. Waverly M. Cole & Mr. John Cook",
        "zip_code": 23220.0,
        "state_plane_x": 11785293.1890605,
        "state_plane_y": 3725076.75101352
      }
    },
    {
      "type": "Feature",
      "geometry": {
        "type": "Point",
        "coordinates": [
          -77.46198112,
          37.55359592
        ]
      },
      "properties": {
        "year": "1980",
        "chair1": "Janet Heltzel",
        "chair2": "",
        "clean_address": "1814 Park Ave.",
        "host_name": "Mr. John W. Hawkins",
        "zip_code": 23220.0,
        "state_plane_x": 11783819.1539509,
        "state_plane_y": 3726776.17215535
      }
    },
    {
      "type": "Feature",
      "geometry": {
        "type": "Point",
        "coordinates": [
          -77.46147672,
          37.55431794
        ]
      },
      "properties": {
        "year": "1980",
        "chair1": "Janet Heltzel",
        "chair2": "",
        "clean_address": "1821 Monument Ave.",
        "host_name": "Mr. & Mrs. Drew (Ann) Carneal",
        "zip_code": 23220.0,
        "state_plane_x": 11783962.4725619,
        "state_plane_y": 3727040.66112769
      }
    },
    {
      "type": "Feature",
      "geometry": {
        "type": "Point",
        "coordinates": [
          -77.46631129,
          37.55721958
        ]
      },
      "properties": {
        "year": "1980",
        "chair1": "Janet Heltzel",
        "chair2": "",
        "clean_address": "2307 Monument Ave.",
        "host_name": "Mr. & Mrs. Thomas O. (Millie) Jones",
        "zip_code": 23220.0,
        "state_plane_x": 11782549.5216476,
        "state_plane_y": 3728081.74894051
      }
    },
    {
      "type": "Feature",
      "geometry": {
        "type": "Point",
        "coordinates": [
          -77.46424847,
          37.55416283
        ]
      },
      "properties": {
        "year": "1980",
        "chair1": "Janet Heltzel",
        "chair2": "",
        "clean_address": "2024 Stuart Ave.",
        "host_name": "Ms. Isabel Witt",
        "zip_code": 23220.0,
        "state_plane_x": 11783159.6523171,
        "state_plane_y": 3726975.36007719
      }
    },
    {
      "type": "Feature",
      "geometry": {
        "type": "Point",
        "coordinates": [
          -77.45981193,
          37.55467935
        ]
      },
      "properties": {
        "year": "1981",
        "chair1": "James Corum",
        "chair2": "",
        "clean_address": "500 N. Allen Ave.",
        "host_name": "The Martin Agency",
        "zip_code": 23220.0,
        "state_plane_x": 11784443.5887256,
        "state_plane_y": 3727177.56275678
      }
    },
    {
      "type": "Feature",
      "geometry": {
        "type": "Point",
        "coordinates": [
          -77.45941449,
          37.55503021
        ]
      },
      "properties": {
        "year": "1981",
        "chair1": "James Corum",
        "chair2": "",
        "clean_address": "1800 W. Grace St.",
        "host_name": "Virginia Auto Dealers Association",
        "zip_code": 23220.0,
        "state_plane_x": 11784557.3850859,
        "state_plane_y": 3727306.57529402
      }
    },
    {
      "type": "Feature",
      "geometry": {
        "type": "Point",
        "coordinates": [
          -77.4582269,
          37.55032812
        ]
      },
      "properties": {
        "year": "1981",
        "chair1": "James Corum",
        "chair2": "",
        "clean_address": "1505 Hanover Ave.",
        "host_name": "Mr. & Mrs. Charles (May) Fox",
        "zip_code": 23220.0,
        "state_plane_x": 11784920.518546,
        "state_plane_y": 3725598.37529835
      }
    },
    {
      "type": "Feature",
      "geometry": {
        "type": "Point",
        "coordinates": [
          -77.45848969,
          37.55041151
        ]
      },
      "properties": {
        "year": "1981",
        "chair1": "James Corum",
        "chair2": "",
        "clean_address": "1511 Hanover Ave.",
        "host_name": "Mr. & Mrs. William (Catherine) Ellyson",
        "zip_code": 23220.0,
        "state_plane_x": 11784844.0059038,
        "state_plane_y": 3725627.89689286
      }
    },
    {
      "type": "Feature",
      "geometry": {
        "type": "Point",
        "coordinates": [
          -77.45871613,
          37.55050083
        ]
      },
      "properties": {
        "year": "1981",
        "chair1": "James Corum",
        "chair2": "",
        "clean_address": "1517 Hanover Ave.",
        "host_name": "Ms. Yvonne Payne Bandas",
        "zip_code": 23220.0,
        "state_plane_x": 11784778.0060358,
        "state_plane_y": 3725659.69177677
      }
    },
    {
      "type": "Feature",
      "geometry": {
        "type": "Point",
        "coordinates": [
          -77.45879692,
          37.55052103
        ]
      },
      "properties": {
        "year": "1981",
        "chair1": "James Corum",
        "chair2": "",
        "clean_address": "1519 Hanover Ave.",
        "host_name": "Mr. & Mrs. Vernon (Pate) Smith",
        "zip_code": 23220.0,
        "state_plane_x": 11784754.5060828,
        "state_plane_y": 3725666.79018778
      }
    },
    {
      "type": "Feature",
      "geometry": {
        "type": "Point",
        "coordinates": [
          -77.45803717,
          37.5507546
        ]
      },
      "properties": {
        "year": "1981",
        "chair1": "James Corum",
        "chair2": "",
        "clean_address": "1516 Park Ave.",
        "host_name": "Mr. James A. Fleming",
        "zip_code": 23220.0,
        "state_plane_x": 11784973.8055129,
        "state_plane_y": 3725754.25950102
      }
    },
    {
      "type": "Feature",
      "geometry": {
        "type": "Point",
        "coordinates": [
          -77.4583431,
          37.55104074
        ]
      },
      "properties": {
        "year": "1981",
        "chair1": "James Corum",
        "chair2": "",
        "clean_address": "1530 Park Ave.",
        "host_name": "Mrs. Edmund A. Rennolds",
        "zip_code": 23220.0,
        "state_plane_x": 11784883.9723592,
        "state_plane_y": 3725857.46205048
      }
    },
    {
      "type": "Feature",
      "geometry": {
        "type": "Point",
        "coordinates": [
          -77.45840285,
          37.55111614
        ]
      },
      "properties": {
        "year": "1981",
        "chair1": "James Corum",
        "chair2": "",
        "clean_address": "1534 Park Ave.",
        "host_name": "Mr. James Corum",
        "zip_code": 23220.0,
        "state_plane_x": 11784866.3496911,
        "state_plane_y": 3725884.72380702
      }
    },
    {
      "type": "Feature",
      "geometry": {
        "type": "Point",
        "coordinates": [
          -77.4585396,
          37.55135064
        ]
      },
      "properties": {
        "year": "1981",
        "chair1": "James Corum",
        "chair2": "",
        "clean_address": "401 Stuart Cir.",
        "host_name": "Ms. Leslie Spiers & Mr. Vernon Jackson",
        "zip_code": 23220.0,
        "state_plane_x": 11784825.766767,
        "state_plane_y": 3725969.66753477
      }
    },
    {
      "type": "Feature",
      "geometry": {
        "type": "Point",
        "coordinates": [
          -77.46082963,
          37.54859055
        ]
      },
      "properties": {
        "year": "1982",
        "chair1": "Vienna Taylor",
        "chair2": "",
        "clean_address": "1613 Floyd Ave.",
        "host_name": "Mr. & Mrs. John (Ellen) Southall",
        "zip_code": 23220.0,
        "state_plane_x": 11784172.9980594,
        "state_plane_y": 3724957.42349628
      }
    },
    {
      "type": "Feature",
      "geometry": {
        "type": "Point",
        "coordinates": [
          -77.4640923,
          37.55144354
        ]
      },
      "properties": {
        "year": "1982",
        "chair1": "Vienna Taylor",
        "chair2": "",
        "clean_address": "1916 Grove Ave.",
        "host_name": "Mr. William Caplan",
        "zip_code": 23220.0,
        "state_plane_x": 11783215.7870474,
        "state_plane_y": 3725985.78134769
      }
    },
    {
      "type": "Feature",
      "geometry": {
        "type": "Point",
        "coordinates": [
          -77.46475113,
          37.55165268
        ]
      },
      "properties": {
        "year": "1982",
        "chair1": "Vienna Taylor",
        "chair2": "",
        "clean_address": "2002 Grove Ave.",
        "host_name": "Dr. & Mrs. Norman (Ozell) Briggs",
        "zip_code": 23220.0,
        "state_plane_x": 11783023.971158,
        "state_plane_y": 3726059.83172452
      }
    },
    {
      "type": "Feature",
      "geometry": {
        "type": "Point",
        "coordinates": [
          -77.46529258,
          37.55152231
        ]
      },
      "properties": {
        "year": "1982",
        "chair1": "Vienna Taylor",
        "chair2": "",
        "clean_address": "2013 Grove Ave.",
        "host_name": "Dr. Joseph Dunford",
        "zip_code": 23220.0,
        "state_plane_x": 11782867.5361034,
        "state_plane_y": 3726010.64481501
      }
    },
    {
      "type": "Feature",
      "geometry": {
        "type": "Point",
        "coordinates": [
          -77.4621408,
          37.55170717
        ]
      },
      "properties": {
        "year": "1982",
        "chair1": "Vienna Taylor",
        "chair2": "",
        "clean_address": "1815 Hanover Ave.",
        "host_name": "Mr. David Hamner",
        "zip_code": 23220.0,
        "state_plane_x": 11783780.4269942,
        "state_plane_y": 3726087.97996218
      }
    },
    {
      "type": "Feature",
      "geometry": {
        "type": "Point",
        "coordinates": [
          -77.4697946,
          37.55929105
        ]
      },
      "properties": {
        "year": "1982",
        "chair1": "Vienna Taylor",
        "chair2": "",
        "clean_address": "2625 Monument Ave.",
        "host_name": "Mr. & Mrs. John (Carolyn) Snow",
        "zip_code": 23220.0,
        "state_plane_x": 11781531.6303106,
        "state_plane_y": 3728824.9203544
      }
    },
    {
      "type": "Feature",
      "geometry": {
        "type": "Point",
        "coordinates": [
          -77.46743956,
          37.55709044
        ]
      },
      "properties": {
        "year": "1982",
        "chair1": "Vienna Taylor",
        "chair2": "",
        "clean_address": "2402 Park Ave.",
        "host_name": "Mr. & Mrs. Stafford (Shirley) White",
        "zip_code": 23220.0,
        "state_plane_x": 11782223.000319,
        "state_plane_y": 3728031.15127268
      }
    },
    {
      "type": "Feature",
      "geometry": {
        "type": "Point",
        "coordinates": [
          -77.45785998,
          37.54787195
        ]
      },
      "properties": {
        "year": "1984",
        "chair1": "Ellen Lloyd-Southall",
        "chair2": "",
        "clean_address": "1400 Floyd Ave.",
        "host_name": "Mr. & Mrs. Overton Dennis",
        "zip_code": 23220.0,
        "state_plane_x": 11785036.7561744,
        "state_plane_y": 3724705.27472235
      }
    },
    {
      "type": "Feature",
      "geometry": {
        "type": "Point",
        "coordinates": [
          -77.46793317,
          37.55145366
        ]
      },
      "properties": {
        "year": "1984",
        "chair1": "Ellen Lloyd-Southall",
        "chair2": "",
        "clean_address": "2206 Floyd Ave.",
        "host_name": "Mr. Ronnie Drake",
        "zip_code": 23220.0,
        "state_plane_x": 11782102.3611246,
        "state_plane_y": 3725977.27020985
      }
    },
    {
      "type": "Feature",
      "geometry": {
        "type": "Point",
        "coordinates": [
          -77.45696933,
          37.55357423
        ]
      },
      "properties": {
        "year": "1984",
        "chair1": "Ellen Lloyd-Southall",
        "chair2": "",
        "clean_address": "1602 W. Grace St.",
        "host_name": "Mr. Ronald W. Phaup & Mr. A. G. Rice",
        "zip_code": 23220.0,
        "state_plane_x": 11785272.0073444,
        "state_plane_y": 3726784.28729661
      }
    },
    {
      "type": "Feature",
      "geometry": {
        "type": "Point",
        "coordinates": [
          -77.45975157,
          37.55524198
        ]
      },
      "properties": {
        "year": "1984",
        "chair1": "Ellen Lloyd-Southall",
        "chair2": "",
        "clean_address": "1810 W. Grace St.",
        "host_name": "Mr.  & Mrs. C. Michael (Anne) DeCamps",
        "zip_code": 23220.0,
        "state_plane_x": 11784458.8295088,
        "state_plane_y": 3727382.60270102
      }
    },
    {
      "type": "Feature",
      "geometry": {
        "type": "Point",
        "coordinates": [
          -77.46177241,
          37.5560303
        ]
      },
      "properties": {
        "year": "1984",
        "chair1": "Ellen Lloyd-Southall",
        "chair2": "",
        "clean_address": "2005 W. Grace St.",
        "host_name": "Mr. & Mrs. Thomas E. Machia",
        "zip_code": 23220.0,
        "state_plane_x": 11783869.9028651,
        "state_plane_y": 3727663.17759919
      }
    },
    {
      "type": "Feature",
      "geometry": {
        "type": "Point",
        "coordinates": [
          -77.4681087,
          37.55243403
        ]
      },
      "properties": {
        "year": "1984",
        "chair1": "Ellen Lloyd-Southall",
        "chair2": "",
        "clean_address": "2221 Grove Ave.",
        "host_name": "Mr. & Mrs. F. Wilson Craigie, Jr.",
        "zip_code": 23220.0,
        "state_plane_x": 11782047.5764573,
        "state_plane_y": 3726333.66090126
      }
    },
    {
      "type": "Feature",
      "geometry": {
        "type": "Point",
        "coordinates": [
          -77.4641058,
          37.55200077
        ]
      },
      "properties": {
        "year": "1984",
        "chair1": "Ellen Lloyd-Southall",
        "chair2": "",
        "clean_address": "205 N. Meadow St.",
        "host_name": "Mr. Robb Moss",
        "zip_code": 23220.0,
        "state_plane_x": 11783209.6456554,
        "state_plane_y": 3726188.6231336
      }
    },
    {
      "type": "Feature",
      "geometry": {
        "type": "Point",
        "coordinates": [
          -77.4639646,
          37.55650239
        ]
      },
      "properties": {
        "year": "1984",
        "chair1": "Ellen Lloyd-Southall",
        "chair2": "",
        "clean_address": "2200 Monument Ave.",
        "host_name": "Dr. & Mrs. William F. (Rosemary) Streicker",
        "zip_code": 23220.0,
        "state_plane_x": 11783232.5875387,
        "state_plane_y": 3727828.08114077
      }
    },
    {
      "type": "Feature",
      "geometry": {
        "type": "Point",
        "coordinates": [
          -77.46115916,
          37.55315779
        ]
      },
      "properties": {
        "year": "1985",
        "chair1": "Robb Moss",
        "chair2": "",
        "clean_address": "402 N. Allen Ave.",
        "host_name": "Mr. & Mrs. William (Regina) Carreras",
        "zip_code": 23220.0,
        "state_plane_x": 11784059.1705312,
        "state_plane_y": 3726619.2718786
      }
    },
    {
      "type": "Feature",
      "geometry": {
        "type": "Point",
        "coordinates": [
          -77.46237344,
          37.55181261
        ]
      },
      "properties": {
        "year": "1985",
        "chair1": "Robb Moss",
        "chair2": "",
        "clean_address": "1823 Hanover Ave.",
        "host_name": "Mr. Michael Krumbein & Ms. Jane Keyser",
        "zip_code": 23220.0,
        "state_plane_x": 11783712.5698464,
        "state_plane_y": 3726125.62818085
      }
    },
    {
      "type": "Feature",
      "geometry": {
        "type": "Point",
        "coordinates": [
          -77.46031845,
          37.55144037
        ]
      },
      "properties": {
        "year": "1985",
        "chair1": "Robb Moss",
        "chair2": "",
        "clean_address": "1700 Hanover Ave.",
        "host_name": "Mr. John Adair",
        "zip_code": 23220.0,
        "state_plane_x": 11784309.7556599,
        "state_plane_y": 3725996.65402935
      }
    },
    {
      "type": "Feature",
      "geometry": {
        "type": "Point",
        "coordinates": [
          -77.46576066,
          37.55689798
        ]
      },
      "properties": {
        "year": "1985",
        "chair1": "Robb Moss",
        "chair2": "",
        "clean_address": "2235 Monument Ave.",
        "host_name": "Mr. & Mrs. G. William (Marie) White, Jr.",
        "zip_code": 23220.0,
        "state_plane_x": 11782710.4074807,
        "state_plane_y": 3727966.4050111
      }
    },
    {
      "type": "Feature",
      "geometry": {
        "type": "Point",
        "coordinates": [
          -77.46726169,
          37.5584852
        ]
      },
      "properties": {
        "year": "1985",
        "chair1": "Robb Moss",
        "chair2": "",
        "clean_address": "2340 Monument Ave.",
        "host_name": "Dr. & Mrs. Gerasim (Edith) Tikoff",
        "zip_code": 23220.0,
        "state_plane_x": 11782269.000227,
        "state_plane_y": 3728539.54001965
      }
    },
    {
      "type": "Feature",
      "geometry": {
        "type": "Point",
        "coordinates": [
          -77.46810918,
          37.55822522
        ]
      },
      "properties": {
        "year": "1985",
        "chair1": "Robb Moss",
        "chair2": "",
        "clean_address": "2501 Monument Ave.",
        "host_name": "Offices of Virginia agency of Northwestern Mutual Life",
        "zip_code": 23220.0,
        "state_plane_x": 11782024.3901519,
        "state_plane_y": 3728442.19539811
      }
    },
    {
      "type": "Feature",
      "geometry": {
        "type": "Point",
        "coordinates": [
          -77.46991461,
          37.56004045
        ]
      },
      "properties": {
        "year": "1985",
        "chair1": "Robb Moss",
        "chair2": "",
        "clean_address": "2704 Monument Ave.",
        "host_name": "Mr. & Mrs. Donald P. (Dorothy) Irwin",
        "zip_code": 23220.0,
        "state_plane_x": 11781493.8698875,
        "state_plane_y": 3729097.39520319
      }
    },
    {
      "type": "Feature",
      "geometry": {
        "type": "Point",
        "coordinates": [
          -77.46819649,
          37.55585861
        ]
      },
      "properties": {
        "year": "1985",
        "chair1": "Robb Moss",
        "chair2": "",
        "clean_address": "418 N. Stafford Ave.",
        "host_name": "Mr. Carey Lindsey",
        "zip_code": 23220.0,
        "state_plane_x": 11782008.5000919,
        "state_plane_y": 3727580.24994352
      }
    },
    {
      "type": "Feature",
      "geometry": {
        "type": "Point",
        "coordinates": [
          -77.45922297,
          37.54834503
        ]
      },
      "properties": {
        "year": "1986",
        "chair1": "Samantha Shaffer",
        "chair2": "",
        "clean_address": "1504 Floyd Ave.",
        "host_name": "Mr. & Mrs. Bill (Susan) Grove",
        "zip_code": 23220.0,
        "state_plane_x": 11784639.7376115,
        "state_plane_y": 3724873.16283803
      }
    },
    {
      "type": "Feature",
      "geometry": {
        "type": "Point",
        "coordinates": [
          -77.45993004,
          37.54727016
        ]
      },
      "properties": {
        "year": "1986",
        "chair1": "Samantha Shaffer",
        "chair2": "",
        "clean_address": "1506 W. Main St.",
        "host_name": "Mr. & Mrs. Jim (Penny) Stygar",
        "zip_code": 23220.0,
        "state_plane_x": 11784439.074627,
        "state_plane_y": 3724479.54846777
      }
    },
    {
      "type": "Feature",
      "geometry": {
        "type": "Point",
        "coordinates": [
          -77.46013924,
          37.54734101
        ]
      },
      "properties": {
        "year": "1986",
        "chair1": "Samantha Shaffer",
        "chair2": "",
        "clean_address": "1514 W. Main St.",
        "host_name": "Beverly Reynolds & Charlotte Minor",
        "zip_code": 23220.0,
        "state_plane_x": 11784378.145615,
        "state_plane_y": 3724504.67637026
      }
    },
    {
      "type": "Feature",
      "geometry": {
        "type": "Point",
        "coordinates": [
          -77.46917738,
          37.55691481
        ]
      },
      "properties": {
        "year": "1986",
        "chair1": "Samantha Shaffer",
        "chair2": "",
        "clean_address": "2503 Kensington Ave.",
        "host_name": "Ms.  Dottie Smith",
        "zip_code": 23220.0,
        "state_plane_x": 11781719.9780311,
        "state_plane_y": 3727961.7002961
      }
    },
    {
      "type": "Feature",
      "geometry": {
        "type": "Point",
        "coordinates": [
          -77.46899411,
          37.55949891
        ]
      },
      "properties": {
        "year": "1986",
        "chair1": "Samantha Shaffer",
        "chair2": "",
        "clean_address": "2610 Monument Ave.",
        "host_name": "Mr. & Mrs. Richard (Sylvia) Summers",
        "zip_code": 23220.0,
        "state_plane_x": 11781762.8263706,
        "state_plane_y": 3728903.13378069
      }
    },
    {
      "type": "Feature",
      "geometry": {
        "type": "Point",
        "coordinates": [
          -77.46831137,
          37.56030212
        ]
      },
      "properties": {
        "year": "1986",
        "chair1": "Samantha Shaffer",
        "chair2": "",
        "clean_address": "2612 W. Grace St.",
        "host_name": "Mr. & Mrs. Baylor (Gail) Nichols",
        "zip_code": 23220.0,
        "state_plane_x": 11781957.520535,
        "state_plane_y": 3729197.7411311
      }
    },
    {
      "type": "Feature",
      "geometry": {
        "type": "Point",
        "coordinates": [
          -77.45897513,
          37.54858124
        ]
      },
      "properties": {
        "year": "1986",
        "chair1": "Samantha Shaffer",
        "chair2": "",
        "clean_address": "102 N. Plum St.",
        "host_name": "Mr. & Mrs. David (June) Hazlehurst",
        "zip_code": 23220.0,
        "state_plane_x": 11784710.6337952,
        "state_plane_y": 3724959.95531535
      }
    },
    {
      "type": "Feature",
      "geometry": {
        "type": "Point",
        "coordinates": [
          -77.45676282,
          37.55084316
        ]
      },
      "properties": {
        "year": "1986",
        "chair1": "Samantha Shaffer",
        "chair2": "",
        "clean_address": "1146 West Ave.",
        "host_name": "Mr. James Stutts",
        "zip_code": 23220.0,
        "state_plane_x": 11785342.8582525,
        "state_plane_y": 3725790.58620001
      }
    },
    {
      "type": "Feature",
      "geometry": {
        "type": "Point",
        "coordinates": [
          -77.45828711,
          37.54903472
        ]
      },
      "properties": {
        "year": "1986",
        "chair1": "Samantha Shaffer",
        "chair2": "",
        "clean_address": "1423 Grove Ave.",
        "host_name": "Ms. JoAnne & Ms. Lacey Jacobs",
        "zip_code": 23220.0,
        "state_plane_x": 11784908.2623369,
        "state_plane_y": 3725127.26600435
      }
    },
    {
      "type": "Feature",
      "geometry": {
        "type": "Point",
        "coordinates": [
          -77.46561463,
          37.55747974
        ]
      },
      "properties": {
        "year": "1987",
        "chair1": "Pam Wood",
        "chair2": "",
        "clean_address": "2300 Monument Ave.",
        "host_name": "Mr. & Mrs. Randy (Lorna) Wycoff",
        "zip_code": 23220.0,
        "state_plane_x": 11782750.4129781,
        "state_plane_y": 3728178.68477027
      }
    },
    {
      "type": "Feature",
      "geometry": {
        "type": "Point",
        "coordinates": [
          -77.46607347,
          37.55707201
        ]
      },
      "properties": {
        "year": "1987",
        "chair1": "Pam Wood",
        "chair2": "",
        "clean_address": "2301 Monument Ave.",
        "host_name": "Mr. & Mrs. Tazewell (Virginia) Carrington",
        "zip_code": 23220.0,
        "state_plane_x": 11782619.043162,
        "state_plane_y": 3728028.77398081
      }
    },
    {
      "type": "Feature",
      "geometry": {
        "type": "Point",
        "coordinates": [
          -77.46631129,
          37.55721958
        ]
      },
      "properties": {
        "year": "1987",
        "chair1": "Pam Wood",
        "chair2": "",
        "clean_address": "2307 Monument Ave.",
        "host_name": "Hon. & Mrs. Tom (Millie) Jones",
        "zip_code": 23220.0,
        "state_plane_x": 11782549.5216476,
        "state_plane_y": 3728081.74894051
      }
    },
    {
      "type": "Feature",
      "geometry": {
        "type": "Point",
        "coordinates": [
          -77.46644886,
          37.55728892
        ]
      },
      "properties": {
        "year": "1987",
        "chair1": "Pam Wood",
        "chair2": "",
        "clean_address": "2309 Monument Ave.",
        "host_name": "Mr. & Mrs. Jack (Mary) Spain",
        "zip_code": 23220.0,
        "state_plane_x": 11782509.3694969,
        "state_plane_y": 3728106.55991451
      }
    },
    {
      "type": "Feature",
      "geometry": {
        "type": "Point",
        "coordinates": [
          -77.46626834,
          37.55786074
        ]
      },
      "properties": {
        "year": "1987",
        "chair1": "Pam Wood",
        "chair2": "",
        "clean_address": "2314 Monument Ave.",
        "host_name": "Mr. & Mrs. Taylor (Helen) Reveley",
        "zip_code": 23220.0,
        "state_plane_x": 11782559.413032,
        "state_plane_y": 3728315.32590118
      }
    },
    {
      "type": "Feature",
      "geometry": {
        "type": "Point",
        "coordinates": [
          -77.46664391,
          37.55740548
        ]
      },
      "properties": {
        "year": "1987",
        "chair1": "Pam Wood",
        "chair2": "",
        "clean_address": "2315 Monument Ave.",
        "host_name": "Dr. Clark Booth",
        "zip_code": 23220.0,
        "state_plane_x": 11782452.3692829,
        "state_plane_y": 3728148.37840043
      }
    },
    {
      "type": "Feature",
      "geometry": {
        "type": "Point",
        "coordinates": [
          -77.46686505,
          37.55753853
        ]
      },
      "properties": {
        "year": "1987",
        "chair1": "Pam Wood",
        "chair2": "",
        "clean_address": "2319 Monument Ave.",
        "host_name": "Dr. Estelle Young",
        "zip_code": 23220.0,
        "state_plane_x": 11782387.7388347,
        "state_plane_y": 3728196.1191186
      }
    },
    {
      "type": "Feature",
      "geometry": {
        "type": "Point",
        "coordinates": [
          -77.46641891,
          37.55795057
        ]
      },
      "properties": {
        "year": "1987",
        "chair1": "Pam Wood",
        "chair2": "",
        "clean_address": "2320 Monument Ave.",
        "host_name": "Dr. & Mrs. Wyatt (Mason) Beasley",
        "zip_code": 23220.0,
        "state_plane_x": 11782515.41312,
        "state_plane_y": 3728347.55451126
      }
    },
    {
      "type": "Feature",
      "geometry": {
        "type": "Point",
        "coordinates": [
          -77.46664817,
          37.55808824
        ]
      },
      "properties": {
        "year": "1987",
        "chair1": "Pam Wood",
        "chair2": "",
        "clean_address": "2326 Monument Ave.",
        "host_name": "Mr. Joel Berberich & Ms. Cathy Murray",
        "zip_code": 23220.0,
        "state_plane_x": 11782448.413254,
        "state_plane_y": 3728396.95303452
      }
    },
    {
      "type": "Feature",
      "geometry": {
        "type": "Point",
        "coordinates": [
          -77.46767309,
          37.55803032
        ]
      },
      "properties": {
        "year": "1987",
        "chair1": "Pam Wood",
        "chair2": "",
        "clean_address": "2327 Monument Ave.",
        "host_name": "Mr. & Mrs. Gene (Joyce) Strohkorb",
        "zip_code": 23220.0,
        "state_plane_x": 11782151.5654225,
        "state_plane_y": 3728372.61318819
      }
    },
    {
      "type": "Feature",
      "geometry": {
        "type": "Point",
        "coordinates": [
          -77.46678645,
          37.55817132
        ]
      },
      "properties": {
        "year": "1987",
        "chair1": "Pam Wood",
        "chair2": "",
        "clean_address": "2330 Monument Ave.",
        "host_name": "Ronald McDonald House",
        "zip_code": 23220.0,
        "state_plane_x": 11782408.0002771,
        "state_plane_y": 3728426.76268619
      }
    },
    {
      "type": "Feature",
      "geometry": {
        "type": "Point",
        "coordinates": [
          -77.45853796,
          37.54948432
        ]
      },
      "properties": {
        "year": "1988",
        "chair1": "Loryn Brazier",
        "chair2": "",
        "clean_address": "1502 Grove Ave.",
        "host_name": "Mr. Stephen H. Martin",
        "zip_code": 23220.0,
        "state_plane_x": 11784833.7375516,
        "state_plane_y": 3725290.15708277
      }
    },
    {
      "type": "Feature",
      "geometry": {
        "type": "Point",
        "coordinates": [
          -77.4582269,
          37.55032812
        ]
      },
      "properties": {
        "year": "1988",
        "chair1": "Loryn Brazier",
        "chair2": "",
        "clean_address": "1505 Hanover Ave.",
        "host_name": "Ms. Jacqueline Westfall",
        "zip_code": 23220.0,
        "state_plane_x": 11784920.518546,
        "state_plane_y": 3725598.37529835
      }
    },
    {
      "type": "Feature",
      "geometry": {
        "type": "Point",
        "coordinates": [
          -77.45879692,
          37.55052103
        ]
      },
      "properties": {
        "year": "1988",
        "chair1": "Loryn Brazier",
        "chair2": "",
        "clean_address": "1519 Hanover Ave.",
        "host_name": "Mr. Vernon Smith",
        "zip_code": 23220.0,
        "state_plane_x": 11784754.5060828,
        "state_plane_y": 3725666.79018778
      }
    },
    {
      "type": "Feature",
      "geometry": {
        "type": "Point",
        "coordinates": [
          -77.45728157,
          37.55265759
        ]
      },
      "properties": {
        "year": "1988",
        "chair1": "Loryn Brazier",
        "chair2": "",
        "clean_address": "503 Stuart Cir.",
        "host_name": "St. John’s United Church of Christ",
        "zip_code": 23220.0,
        "state_plane_x": 11785185.1853395,
        "state_plane_y": 3726449.54616819
      }
    },
    {
      "type": "Feature",
      "geometry": {
        "type": "Point",
        "coordinates": [
          -77.45828129,
          37.55227336
        ]
      },
      "properties": {
        "year": "1988",
        "chair1": "Loryn Brazier",
        "chair2": "",
        "clean_address": "1603 Monument Ave.",
        "host_name": "First Lutheran Church",
        "zip_code": 23220.0,
        "state_plane_x": 11784896.9372284,
        "state_plane_y": 3726306.45032577
      }
    },
    {
      "type": "Feature",
      "geometry": {
        "type": "Point",
        "coordinates": [
          -77.45920021,
          37.55295726
        ]
      },
      "properties": {
        "year": "1988",
        "chair1": "Loryn Brazier",
        "chair2": "",
        "clean_address": "1627 Monument Ave.",
        "host_name": "Grace Covenant Presbyterian Church",
        "zip_code": 23220.0,
        "state_plane_x": 11784627.8186721,
        "state_plane_y": 3726552.51348193
      }
    },
    {
      "type": "Feature",
      "geometry": {
        "type": "Point",
        "coordinates": [
          -77.45803717,
          37.5507546
        ]
      },
      "properties": {
        "year": "1988",
        "chair1": "Loryn Brazier",
        "chair2": "",
        "clean_address": "1516 Park Ave.",
        "host_name": "Mr. Charles J. Cooper",
        "zip_code": 23220.0,
        "state_plane_x": 11784973.8055129,
        "state_plane_y": 3725754.25950102
      }
    },
    {
      "type": "Feature",
      "geometry": {
        "type": "Point",
        "coordinates": [
          -77.4583431,
          37.55104074
        ]
      },
      "properties": {
        "year": "1988",
        "chair1": "Loryn Brazier",
        "chair2": "",
        "clean_address": "1530 Park Ave.",
        "host_name": "Mr. Michael B. Wray",
        "zip_code": 23220.0,
        "state_plane_x": 11784883.9723592,
        "state_plane_y": 3725857.46205048
      }
    },
    {
      "type": "Feature",
      "geometry": {
        "type": "Point",
        "coordinates": [
          -77.45830667,
          37.54980403
        ]
      },
      "properties": {
        "year": "1988",
        "chair1": "Loryn Brazier",
        "chair2": "",
        "clean_address": "208 N. Plum St.",
        "host_name": "Ms. Jane Brooke",
        "zip_code": 23220.0,
        "state_plane_x": 11784899.4998873,
        "state_plane_y": 3725407.30251777
      }
    },
    {
      "type": "Feature",
      "geometry": {
        "type": "Point",
        "coordinates": [
          -77.45600934,
          37.55008369
        ]
      },
      "properties": {
        "year": "1989",
        "chair1": "Jane Smith",
        "chair2": "",
        "clean_address": "1119 West Ave.",
        "host_name": "Mr. William C. (Tricia) Wynne",
        "zip_code": 23220.0,
        "state_plane_x": 11785564.3332033,
        "state_plane_y": 3725516.48241752
      }
    },
    {
      "type": "Feature",
      "geometry": {
        "type": "Point",
        "coordinates": [
          -77.45617319,
          37.55048836
        ]
      },
      "properties": {
        "year": "1989",
        "chair1": "Jane Smith",
        "chair2": "",
        "clean_address": "1130 West Ave.",
        "host_name": "Mr. & Mrs. Steven D. (Debra) Berg",
        "zip_code": 23220.0,
        "state_plane_x": 11785515.2079734,
        "state_plane_y": 3725663.29249135
      }
    },